
- name: Colombia
  id: colombia
  year: 2015
  category: MONITOR GIS
  description: An open source GIS solution integrated into USAID/Colombia's existing M&E system allowing the visualization of disaggregated results data.
  features:
    - GIS technology for better decision making
  quote:
  quote-author:
  url:
  lat: 4.624335
  lon: -74.063644

- name: Haiti
  id: haiti
  year: 2009
  category: Aid Management Platform
  description: "Haiti's AMP public portal launched in 2013 and continues to serve as a critical tool for governments, donors, and citizens during reconstruction efforts following the catastrophic 2010 earthquake."
  features:
    - Responsive innovation
    - Custom module tracks damage reports and donor pledges
  quote: "[AMP] will directly support our efforts to become an emerging economy by 2030."
  quote-author: Government of Haiti Representative
  url: https://haiti.ampsite.net/
  lat: 19.0558462
  lon: -73.0513321

- name: Honduras
  id: honduras
  year: 2012
  category: Aid Management Platform
  description: "The first Central American country to use the AMP, Honduras' public portal launch in 2013 was accompanied by a government-sponsored public awareness campaign."
  features:
    - Custom solutions
    - South-South Cooperation tracking module
  quote:
  quote-author:
  url: http://pgc.sre.gob.hn/
  lat: 14.7503821
  lon: -86.2420082

- name: Worldwide
  id: un
  year: 2014
  category: Information Management System
  description: A tool that will help United Nations Development Group staff around the globe to report progress on progress and share good practices.
  features:
    - Streamlined reporting
  quote:
  quote-author:
  url:
  lat: 40.751985
  lon: -73.969780

- name: United States
  id: us
  year: 2014
  category: Monitoring & Evaluation System
  description: In support of the Global Security Contingency Fund, this project involves developing a data management system, creating Performance Monitoring Frameworks (PMF), collecting data, conducting evaluations, and analyzing program performance.
  features:
    - Data management tools and processes
  quote:
  quote-author:
  url:
  lat: 38.894598
  lon: -77.047151
